Time,Position_N,Position_E,Position_D,Flight path angle,Heading angle,Total angle of attack,Bank angle,Ground speed,Lateral acceleration (command),Lateral acceleration (response),Bank angle (command),Bank angle (response),Drag force,Thrust force,Gravitational acceleration,Yaw,Pitch,Roll,Elevation,Azimuth
0,0,0,-1900,0,2,0,0,250,2.549290532,0,-2.870025783,0,95310.78504,294359.375,9.813745692,2,0,0,10.76437137,-2
0.01,2.499137988,0.087271822,-1899.999509,-0.022467204,1.999999997,0.011392916,-0.013669696,250.1320683,2.549290532,0.002001363,-2.863572051,-0.013669696,95411.51663,292512.7173,9.813745694,1.999997278,-0.011074288,-0.013669695,10.75546437,-2.003017517
0.02,4.999589193,0.174589501,-1899.998039,-0.044816559,1.999999919,0.044678877,-0.052123157,250.2628819,2.549290532,0.007856831,-2.857153643,-0.052123157,95511.35308,290680.6389,9.813745698,1.999959274,-0.000137701,-0.052123141,10.76772567,-2.010860465
0.03,7.50134075,0.261952579,-1899.995597,-0.06694809,1.999999433,0.098546106,-0.111704457,250.3924507,2.549290532,0.017347398,-2.850798471,-0.111704457,95610.30042,288863.042,9.813745706,1.999807306,0.031597829,-0.111704398,10.80005828,-2.022805882
0.04,10.0043799,0.349360578,-1899.992192,-0.08876811,1.999997752,0.171725005,-0.189038874,250.5207841,2.549290532,0.030260327,-2.844531681,-0.189038874,95708.36436,287059.8356,9.813745716,1.999431172,0.08295596,-0.189038845,10.85138962,-2.038190962
0.05,12.50869402,0.436812977,-1899.987839,-0.110189007,1.999993535,0.262987745,-0.281027843,250.6478913,2.549290532,0.046389144,-2.838375604,-0.281027843,95805.55029,285270.9365,9.81374573,1.998703621,0.152795575,-0.281028323,10.9206734,-2.056411385
0.06,15.01427056,0.524309187,-1899.982557,-0.13112903,1.999984833,0.371147823,-0.384841987,250.7737809,2.549290532,0.065533618,-2.832349807,-0.384841987,95901.86324,283496.2695,9.813745746,1.997491936,0.240010421,-0.384844356,11.00689084,-2.07691925
0.07,17.52109714,0.611848523,-1899.976368,-0.151512085,1.999969092,0.495059574,-0.497912507,250.8984612,2.549290532,0.087499727,-2.826471197,-0.497912507,95997.3079,281735.7675,9.813745765,1.995666949,0.343528796,-0.497919716,11.10905153,-2.099220708
0.08,20.02916145,0.699430182,-1899.969297,-0.171267523,1.999943192,0.633617649,-0.617921247,251.0219398,2.549290532,0.112099629,-2.820754183,-0.617921247,96091.88863,279989.3716,9.813745787,1.993109827,0.462313278,-0.617938603,11.22619382,-2.122873362
0.09,22.53845133,0.787053214,-1899.961371,-0.190329945,1.99990351,0.785756465,-0.742789704,251.1442241,2.549290532,0.139151613,-2.815210878,-0.742789704,96185.60944,278257.0309,9.813745811,1.989716918,0.59536049,-0.74282571,11.35738505,-2.147483483
0.1,25.04895472,0.874716505,-1899.952622,-0.208639,1.999846001,0.950449619,-0.870667209,251.265321,2.549290532,0.168480049,-2.809851308,-0.870667209,96278.47402,276538.7022,9.813745838,1.985402968,0.741700879,-0.870734398,11.50172146,-2.172703118
0.11,27.56065967,0.962418757,-1899.943083,-0.22613919,1.999766299,1.126709276,-0.99991851,251.3852372,2.549290532,0.19991533,-2.804683643,-0.99991851,96370.48578,274834.3493,9.813745868,1.980102952,0.900398501,-1.000034214,11.658328,-2.198227121
0.12,30.07355437,1.050158482,-1899.93279,-0.242779677,1.999659807,1.313585535,-1.129110956,251.5039787,2.549290532,0.233293809,-2.799714427,-1.129110956,96461.64783,273143.9426,9.813745899,1.973772789,1.070550778,-1.129297966,11.82635802,-2.223790165
0.13,32.58762708,1.137933984,-1899.921782,-0.258514091,1.999521805,1.510165769,-1.257001448,251.6215514,2.549290532,0.268457728,-2.794948802,-1.257001448,96551.96305,271467.4586,9.813745933,1.966389149,1.251288222,-1.257288517,12.00499289,-2.249163761
0.14,35.10286619,1.225743364,-1899.910098,-0.273300344,1.99934754,1.715573943,-1.382523313,251.737961,2.549290532,0.305255141,-2.79039072,-1.382523313,96641.4341,269804.8788,9.813745969,1.957948546,1.44177411,-1.382945493,12.19344156,-2.274153324
0.15,37.61926019,1.313584516,-1899.89778,-0.28710045,1.999132321,1.928969917,-1.504773241,251.8532127,2.549290532,0.343539839,-2.786043143,-1.504773241,96730.06344,268156.1895,9.813746007,1.948465908,1.641204105,-1.505372026,12.39094015,-2.298595308
0.16,40.13679767,1.40145513,-1899.884873,-0.299880336,1.998871597,2.14954873,-1.622998391,251.9673117,2.549290532,0.383171258,-2.78190823,-1.622998391,96817.85337,266521.3809,9.813746047,1.93797276,1.848805817,-1.623821675,12.59675144,-2.32235443
0.17,42.65546731,1.489352704,-1899.87142,-0.311609674,1.998561032,2.376539871,-1.736583774,252.0802629,2.549290532,0.424014396,-2.777987497,-1.736583774,96904.80606,264900.4461,9.813746088,1.92651516,2.063838306,-1.737685627,12.81016449,-2.345321008
0.18,45.17525788,1.577274549,-1899.857469,-0.322261704,1.998196561,2.609206534,-1.845039994,252.1920712,2.549290532,0.465939718,-2.774281969,-1.845039994,96990.92358,263293.3807,9.813746131,1.914151495,2.285591524,-1.846480265,13.03049419,-2.367408421
0.19,47.69615826,1.665217805,-1899.843067,-0.331813066,1.997774449,2.846844868,-1.947991416,252.3027411,2.549290532,0.50882306,-2.770792301,-1.947991416,97076.20791,261700.182,9.813746176,1.900950226,2.513385714,-1.949835195,13.25708081,-2.388550695
0.2,50.21815738,1.753179455,-1899.828263,-0.340243635,1.997291323,3.08878321,-2.045164805,252.4122774,2.549290532,0.552545529,-2.767518893,-2.045164805,97160.66101,260120.8484,9.813746221,1.886987657,2.746570764,-2.047481761,13.48928965,-2.408700241
0.21,52.74124427,1.841156342,-1899.813105,-0.347536362,1.996744205,3.334381317,-2.136378511,252.5206846,2.549290532,0.596993401,-2.764461973,-2.136378511,97244.28479,258555.3785,9.813746268,1.872345796,2.984525517,-2.139242135,13.72651061,-2.427825723
0.22,55.26540802,1.929145186,-1899.797645,-0.353677119,1.996130529,3.58302959,-2.221532191,252.6279673,2.549290532,0.642058019,-2.761621679,-2.221532191,97327.08119,257003.7709,9.813746316,1.857110328,3.226657066,-2.225018972,13.96815787,-2.445910077
0.23,57.79063782,2.017142602,-1899.781934,-0.358654549,1.995448154,3.834148295,-2.300597131,252.7341301,2.549290532,0.687635681,-2.758998112,-2.300597131,97409.05215,255466.0231,9.813746364,1.841368768,3.472400015,-2.30478569,14.21366944,-2.462948679
0.24,60.31692289,2.105145118,-1899.766022,-0.362459917,1.994695361,4.087186774,-2.373607155,252.8391777,2.549290532,0.733627537,-2.756591383,-2.373607155,97490.19968,253942.1315,9.813746413,1.825208782,3.72121574,-2.378577368,14.4625069,-2.478947643
0.25,62.84425255,2.193149195,-1899.749962,-0.365086973,1.99387085,4.341622668,-2.440650139,252.9431148,2.549290532,0.779939475,-2.754401644,-2.440650139,97570.52584,252432.0905,9.813746462,1.808716714,3.972591635,-2.446482274,14.71415496,-2.493922269
0.26,65.37261614,2.281151246,-1899.733805,-0.366531811,1.992973728,4.596961127,-2.501860138,253.0459462,2.549290532,0.826482011,-2.752429113,-2.501860138,97650.0328,250935.8923,9.813746512,1.791976311,4.226040359,-2.508634011,14.96812114,-2.507895617
0.27,67.9020031,2.369147648,-1899.717604,-0.366792739,1.99200349,4.852734028,-2.557410099,253.1476769,2.549290532,0.873170174,-2.750674082,-2.557410099,97728.72281,249453.5265,9.813746562,1.775067654,4.48109909,-2.565204294,15.2239354,-2.520897214
0.28,70.43240289,2.457134764,-1899.701411,-0.365870152,1.990959998,5.108499195,-2.607505176,253.2483119,2.549290532,0.919923395,-2.749136924,-2.607505176,97806.59825,247984.9795,9.813746612,1.758066282,4.737328786,-2.616396318,15.48114973,-2.532961882
0.29,72.96380503,2.545108959,-1899.685278,-0.363766408,1.989843454,5.363839617,-2.652376609,253.3478564,2.549290532,0.966665393,-2.747818091,-2.652376609,97883.66161,246530.2345,9.813746662,1.741042505,4.994313455,-2.66243872,15.73933781,-2.544128679
0.3,75.4961991,2.633066609,-1899.669259,-0.360485708,1.988654374,5.618362681,-2.692276168,253.4463159,2.549290532,1.013324056,-2.746718109,-2.692276168,97959.91553,245089.2712,9.813746711,1.724060903,5.251659441,-2.703580099,15.99809461,-2.554439954
0.31,78.0295747,2.72100412,-1899.653404,-0.356033984,1.987393554,5.871699399,-2.727471128,253.5436958,2.549290532,1.059831332,-2.745837562,-2.727471128,98035.3628,243662.0653,9.81374676,1.70717997,5.50899472,-2.740084086,16.25703592,-2.563940502
0.32,80.5639215,2.808917936,-1899.637766,-0.350418788,1.986062046,6.12350365,-2.758239755,253.6400019,2.549290532,1.106123108,-2.745177084,-2.758239755,98110.00637,242248.5886,9.813746808,1.690451921,5.765968218,-2.772224915,16.515798,-2.572676809
0.33,83.09922919,2.896804553,-1899.622396,-0.343649182,1.984661118,6.373451424,-2.784867286,253.7352401,2.549290532,1.152139099,-2.74473734,-2.784867286,98183.84934,240848.8089,9.813746855,1.673922623,6.022249137,-2.800283491,16.77403709,-2.580696396
0.34,85.63548752,2.984660523,-1899.607346,-0.33573564,1.983192231,6.621240078,-2.807642359,253.8294164,2.549290532,1.197822733,-2.744519009,-2.807642359,98256.89497,239462.6896,9.813746902,1.657631637,6.277526301,-2.824543917,17.03142897,-2.588047238
0.35,88.17268624,3.072482468,-1899.592666,-0.326689949,1.981657001,6.866587596,-2.826853892,253.9225371,2.549290532,1.243121035,-2.744522771,-2.826853892,98329.14669,238090.19,9.813746947,1.641612369,6.531507514,-2.84529044,17.28766851,-2.594777256
0.36,90.71081518,3.160267082,-1899.578406,-0.316525111,1.980057176,7.109231865,-2.84278835,254.0146087,2.549290532,1.287984514,-2.744749284,-2.84278835,98400.60811,236731.265,9.813746991,1.625892287,6.783918936,-2.862804808,17.54246915,-2.600933887
0.37,93.24986418,3.248011138,-1899.564617,-0.305255253,1.978394605,7.348929957,-2.855727409,254.1056378,2.549290532,1.332367053,-2.745199172,-2.855727409,98471.283,235385.8651,9.813747033,1.610493224,7.034504466,-2.877363995,17.79556243,-2.606563711
0.38,95.78982312,3.335711492,-1899.551347,-0.292895541,1.976671212,7.58545742,-2.865945956,254.1956314,2.549290532,1.376225792,-2.745873008,-2.865945956,98541.17529,234053.9368,9.813747074,1.595431717,7.283025148,-2.889238264,18.04669752,-2.611712134
0.39,98.33068189,3.423365085,-1899.538644,-0.279462094,1.974888972,7.818607587,-2.873710421,254.2845963,2.549290532,1.419521023,-2.746771299,-2.873710421,98610.28908,232735.4219,9.813747113,1.580719398,7.529258575,-2.898689554,18.29564062,-2.61642313
0.4,100.8724305,3.510968946,-1899.526557,-0.264971904,1.973049887,8.048190886,-2.879277402,254.3725399,2.549290532,1.462216075,-2.747894477,-2.879277402,98678.62865,231430.2586,9.81374715,1.566363404,7.77299832,-2.905970147,18.54217454,-2.62073903
0.41,103.4150588,3.598520193,-1899.515132,-0.249442756,1.971155971,8.274034176,-2.882892559,254.4594694,2.549290532,1.504277209,-2.749242884,-2.882892559,98746.19841,230138.3805,9.813747186,1.552366811,8.014053363,-2.911321601,18.7860981,-2.624700344
0.42,105.9585569,3.686016033,-1899.504416,-0.232893158,1.969209226,8.495980083,-2.884789759,254.5453925,2.549290532,1.545673509,-2.750816766,-2.884789759,98813.00295,228859.7176,9.813747219,1.538729072,8.252247538,-2.914973919,19.02722563,-2.628345635
0.43,108.5029148,3.77345376,-1899.494454,-0.215342264,1.96721163,8.713886355,-2.885190437,254.6303168,2.549290532,1.586376778,-2.752616265,-2.885190437,98879.04698,227594.1961,9.813747249,1.525446451,8.487418988,-2.917144932,19.26538643,-2.631711421
0.44,111.0481226,3.860830756,-1899.485291,-0.196809809,1.965165122,8.927625228,-2.884303156,254.7142503,2.549290532,1.626361432,-2.754641415,-2.884303156,98944.33539,226341.7383,9.813747278,1.512512461,8.719419624,-2.918039873,19.50042427,-2.634832103
0.45,113.5941703,3.948144489,-1899.47697,-0.177316046,1.963071592,9.137082811,-2.882323344,254.7972008,2.549290532,1.665604399,-2.756892135,-2.882323344,99008.87316,225102.263,9.813747303,1.499918271,8.9481146,-2.917851122,19.73219678,-2.637739932
0.46,116.1410482,4.035392506,-1899.469534,-0.156881679,1.960932869,9.342158474,-2.879433192,254.8791766,2.549290532,1.704085016,-2.75936823,-2.879433192,99072.66545,223875.6859,9.813747326,1.487653112,9.173381795,-2.916758096,19.960575,-2.640464989
0.47,118.6887463,4.12257244,-1899.463026,-0.135527803,1.958750716,9.542764258,-2.875801675,254.9601859,2.549290532,1.741784934,-2.762069394,-2.875801675,99135.71751,222661.9192,9.813747346,1.475704646,9.3951113,-2.914927277,20.18544278,-2.643035192
0.48,121.2372548,4.209681996,-1899.457486,-0.113275854,1.956526822,9.738824297,-2.871584707,255.0402371,2.549290532,1.778688016,-2.764995202,-2.871584707,99198.03472,221460.8725,9.813747363,1.464059322,9.613204917,-2.912512347,20.40669633,-2.645476319
0.49,123.7865641,4.296718955,-1899.452955,-0.090147547,1.9542628,9.930274255,-2.866925385,255.1193386,2.549290532,1.814780244,-2.768145125,-2.866925385,99259.62256,220272.4521,9.813747377,1.452702691,9.827575673,-2.909654431,20.62424363,-2.647812048
0.5,126.3366643,4.38368117,-1899.449471,-0.066164829,1.951960181,10.11706077,-2.861954326,255.1974991,2.549290532,1.850049624,-2.771518522,-2.861954326,99320.48661,219096.5621,9.813747388,1.441619708,10.03814733,-2.90648241,20.83800395,-2.650064008
0.51,128.8875458,4.47056656,-1899.447074,-0.04134983,1.949620415,10.29914093,-2.856790076,255.2747273,2.549290532,1.884486098,-2.775114656,-2.856790076,99380.63255,217933.1039,9.813747395,1.430794988,10.24485392,-2.903113314,21.04790736,-2.652251846
0.52,131.4391989,4.557373106,-1899.445799,-0.015724815,1.947244871,10.47648173,-2.85153957,255.3510318,2.549290532,1.918081448,-2.778932693,-2.85153957,99440.06615,216781.9769,9.813747399,1.420213049,10.44763926,-2.899652768,21.25389421,-2.654393298
0.53,133.991614,4.644098853,-1899.445684,0.01068786,1.944834834,10.64905959,-2.846298648,255.4264215,2.549290532,1.950829216,-2.782971708,-2.846298648,99498.79325,215643.0783,9.813747399,1.409858509,10.64645653,-2.896195483,21.45591464,-2.656504269
0.54,136.5447814,4.730741899,-1899.446764,0.037865787,1.942391511,10.81685984,-2.841152599,255.5009053,2.549290532,1.982724612,-2.787230701,-2.841152599,99556.81975,214516.3034,9.813747396,1.399716267,10.84126782,-2.892825784,21.65392814,-2.658598924
0.55,139.0986916,4.817300397,-1899.449072,0.065786549,1.939916031,10.97987624,-2.836176738,255.5744921,2.549290532,2.013764433,-2.791708596,-2.836176738,99614.15163,213401.5461,9.813747389,1.389771654,11.03204367,-2.889618166,21.84790303,-2.660689775
0.56,141.6533351,4.903772551,-1899.452644,0.094427754,1.937409447,11.13811055,-2.831436996,255.6471908,2.549290532,2.043946982,-2.796404253,-2.831436996,99670.79491,212298.6986,9.813747378,1.380010554,11.21876267,-2.886637861,22.03781606,-2.662787779
0.57,144.2087025,4.990156609,-1899.45751,0.123767071,1.934872742,11.29157203,-2.826990517,255.7190105,2.549290532,2.073271989,-2.801316479,-2.826990517,99726.75567,211207.6518,9.813747363,1.370419501,11.40141104,-2.883941426,22.2236519,-2.664902431
0.58,146.7647843,5.076450866,-1899.463702,0.153782262,1.93230683,11.44027701,-2.822886268,255.78996,2.549290532,2.101740531,-2.806444034,-2.822886268,99782.04001,210128.2957,9.813747344,1.360985762,11.57998224,-2.881577325,22.40540279,-2.667041868
0.59,149.3215712,5.162653656,-1899.471251,0.184451214,1.929712562,11.58424852,-2.819165634,255.8600486,2.549290532,2.129354962,-2.81178564,-2.819165634,99836.65409,209060.5191,9.813747321,1.351697388,11.75447656,-2.879586516,22.58306804,-2.669212959
0.6,151.8790537,5.248763352,-1899.480185,0.215751968,1.927090729,11.7235158,-2.815863013,255.9292851,2.549290532,2.156118832,-2.817339993,-2.815863013,99890.60408,208004.2103,9.813747293,1.342543252,11.92490074,-2.878003027,22.75665367,-2.671421409
0.61,154.4372226,5.334778363,-1899.490534,0.247662743,1.924442065,11.85811396,-2.813006396,255.9976785,2.549290532,2.182036826,-2.823105769,-2.813006396,99943.89617,206959.2567,9.813747261,1.333513071,12.0912676,-2.876854527,22.92617201,-2.673671851
0.62,156.9960686,5.420697131,-1899.502325,0.280161966,1.921767255,11.98808358,-2.81061793,256.065238,2.549290532,2.207114686,-2.829081635,-2.81061793,99996.53655,205925.5456,9.813747225,1.324597412,12.25359569,-2.876162875,23.09164128,-2.67596794
0.63,159.5555826,5.506518131,-1899.515585,0.313228289,1.919066937,12.11347032,-2.808714461,256.1319724,2.549290532,2.23135915,-2.835266256,-2.808714461,100048.5314,204902.9637,9.813747184,1.315787683,12.41190895,-2.875944655,23.25308529,-2.678312448
0.64,162.1157553,5.592239866,-1899.530338,0.346840616,1.916341705,12.2343246,-2.807308063,256.1978907,2.549290532,2.254777886,-2.841658304,-2.807308063,100099.8871,203891.3976,9.813747139,1.307076114,12.56623633,-2.876211694,23.41053299,-2.680707345
0.65,164.6765778,5.677860867,-1899.546611,0.380978121,1.913592116,12.35070122,-2.806406528,256.2630018,2.549290532,2.277379428,-2.848256467,-2.806406528,100150.6096,202890.7341,9.813747089,1.298455733,12.7166115,-2.876971552,23.56401819,-2.683153892
0.66,167.2380409,5.763379692,-1899.564426,0.415620264,1.91081869,12.46265906,-2.806013846,256.3273146,2.549290532,2.299173118,-2.855059454,-2.806013846,100200.7053,201900.8597,9.813747034,1.289920326,12.86307252,-2.87822799,23.71357922,-2.685652715
0.67,169.8001356,5.848794924,-1899.583806,0.450746812,1.908021917,12.57026072,-2.806130652,256.390838,2.549290532,2.320169044,-2.862066008,-2.806130652,100250.1803,200921.6615,9.813746974,1.281464399,13.00566156,-2.879981418,23.85925856,-2.688203888
0.68,172.362853,5.934105169,-1899.604773,0.486337853,1.90520226,12.67357224,-2.806754645,256.4535806,2.549290532,2.340377988,-2.869274905,-2.806754645,100299.0408,199953.0268,9.81374691,1.27308313,13.14442454,-2.882229309,24.00110259,-2.690807002
0.69,174.9261842,6.019309056,-1899.627349,0.522373808,1.902360157,12.77266283,-2.807880983,256.5155513,2.549290532,2.359811368,-2.876684967,-2.807880983,100347.2929,198994.8432,9.81374684,1.264772317,13.27941092,-2.884966595,24.13916125,-2.693461234
0.7,177.4901204,6.104405234,-1899.651553,0.558835444,1.899496022,12.8676045,-2.809502647,256.5767586,2.549290532,2.378481188,-2.884295068,-2.809502647,100394.9427,198046.9992,9.813746765,1.256528329,13.41067337,-2.88818603,24.27348777,-2.696165414
0.71,180.0546528,6.189392375,-1899.677405,0.595703888,1.896610253,12.9584719,-2.811610783,256.6372112,2.549290532,2.396399984,-2.892104135,-2.811610783,100441.9964,197109.3836,9.813746686,1.248348052,13.53826755,-2.891878531,24.40413841,-2.698918086
0.72,182.6197726,6.27426917,-1899.704923,0.632960637,1.89370323,13.04534196,-2.814195013,256.6969176,2.549290532,2.413580779,-2.900111158,-2.814195013,100488.4599,196181.886,9.813746601,1.240228833,13.66225181,-2.896033492,24.53117213,-2.701717559
0.73,185.1854713,6.359034329,-1899.734125,0.670587562,1.890775319,13.1282937,-2.817243722,256.7558862,2.549290532,2.430037035,-2.908315193,-2.817243722,100534.3393,195264.397,9.813746511,1.232168428,13.78268699,-2.900639072,24.65465044,-2.704561962
0.74,187.7517401,6.443686581,-1899.765028,0.708566923,1.887826872,13.20740796,-2.820744317,256.8141254,2.549290532,2.445782609,-2.916715367,-2.820744317,100579.6406,194356.8079,9.813746416,1.224164947,13.89963616,-2.905682456,24.77463707,-2.707449292
0.75,190.3185706,6.528224673,-1899.797648,0.74688137,1.884858233,13.2827672,-2.824683468,256.8716434,2.549290532,2.460831707,-2.925310883,-2.824683468,100624.3696,193459.011,9.813746316,1.21621681,14.0131644,-2.911150099,24.89119777,-2.710377452
0.76,192.8859543,6.61264737,-1899.832001,0.785513951,1.881869732,13.35445525,-2.829047316,256.9284486,2.549290532,2.475198847,-2.934101024,-2.829047316,100668.5322,192570.8996,9.81374621,1.208322689,14.12333857,-2.917027939,25.0044001,-2.713344298
0.77,195.4538827,6.696953454,-1899.8681,0.824448119,1.878861695,13.42255713,-2.83382167,256.9845489,2.549290532,2.488898815,-2.943085154,-2.83382167,100712.1343,191692.368,9.813746099,1.20048147,14.23022715,-2.923301592,25.11431321,-2.716347669
0.78,198.0223475,6.781141726,-1899.905959,0.863667732,1.875834438,13.4871588,-2.838992173,257.0399525,2.549290532,2.501946633,-2.952262725,-2.838992173,100755.1817,190823.3117,9.813745982,1.192692204,14.33389999,-2.929956527,25.2210076,-2.719385416
0.79,200.5913403,6.865211002,-1899.945593,0.903157058,1.87278827,13.54834706,-2.844544454,257.0946673,2.549290532,2.514357516,-2.961633278,-2.844544454,100797.68,189963.6275,9.81374586,1.184954073,14.43442815,-2.936978214,25.32455502,-2.722455438
0.8,203.1608531,6.949160115,-1899.987012,0.942900778,1.869723497,13.60620929,-2.850464259,257.148701,2.549290532,2.526146843,-2.971196449,-2.850464259,100839.635,189113.213,9.813745732,1.177266345,14.53188373,-2.944352266,25.42502818,-2.725555697
0.81,205.7308775,7.032987916,-1900.030229,0.982883985,1.866640415,13.6608333,-2.856737564,257.2020616,2.549290532,2.537330122,-2.980951964,-2.856737564,100881.0522,188271.9674,9.813745599,1.169628349,14.62633966,-2.952064549,25.52250066,-2.728684247
0.82,208.3014054,7.116693268,-1900.075255,1.023092189,1.863539318,13.7123072,-2.863350678,257.2547565,2.549290532,2.547922962,-2.990899651,-2.863350678,100921.9372,187439.7909,9.813745461,1.162039438,14.71786958,-2.960101287,25.61704669,-2.731839248
0.83,210.8724289,7.200275056,-1900.1221,1.063511312,1.860420494,13.7607192,-2.870290319,257.3067935,2.549290532,2.557941035,-3.001039436,-2.870290319,100962.2955,186616.5852,9.813745316,1.154498964,14.80654765,-2.968449145,25.70874102,-2.73501898
0.84,213.44394,7.283732176,-1900.170774,1.10412769,1.857284225,13.80615749,-2.877543688,257.3581799,2.549290532,2.56740006,-3.011371345,-2.877543688,101002.1325,185802.2533,9.813745166,1.147006257,14.89244846,-2.9770953,25.79765878,-2.738221861
0.85,216.0159307,7.367063541,-1900.221286,1.144928072,1.854130789,13.84871012,-2.885098525,257.4089232,2.549290532,2.576315764,-3.021895509,-2.885098525,101041.4537,184996.6992,9.813745011,1.1395606,14.9756468,-2.986027503,25.88387531,-2.741446453
0.86,218.5883932,7.450268081,-1900.273645,1.185899617,1.850960457,13.88846484,-2.892943152,257.4590306,2.549290532,2.584703868,-3.032612166,-2.892943152,101080.2643,184199.8285,9.81374485,1.132161213,15.05621761,-2.995234121,25.96746606,-2.744691468
0.87,221.1613197,7.533344738,-1900.327858,1.227029893,1.847773497,13.92550898,-2.90106651,257.5085094,2.549290532,2.592580053,-3.043521659,-2.90106651,101118.5696,183411.5483,9.813744683,1.124807238,15.13423582,-3.004704174,26.04850643,-2.747955781
0.88,223.7347025,7.616292471,-1900.383934,1.268306872,1.844570169,13.95992936,-2.909458186,257.5573665,2.549290532,2.599959946,-3.054624439,-2.909458186,101156.3747,182631.7666,9.81374451,1.117497728,15.20977624,-3.014427366,26.12707168,-2.751238428
0.89,226.3085339,7.699110254,-1900.441878,1.30971893,1.841350728,13.99181216,-2.918108425,257.605609,2.549290532,2.606859093,-3.065921071,-2.918108425,101193.6849,181860.3931,9.813744331,1.110231637,15.28291344,-3.024394096,26.20323682,-2.754538609
0.9,228.8828064,7.781797074,-1900.501697,1.351254839,1.838115422,14.02124284,-2.927008144,257.6532438,2.549290532,2.613292942,-3.077412227,-2.927008144,101230.5052,181097.3387,9.813744147,1.103007809,15.35372166,-3.03459547,26.27707647,-2.757855692
0.91,231.4575125,7.864351933,-1900.563398,1.392903766,1.834864491,14.04830603,-2.936148936,257.7002777,2.549290532,2.619276823,-3.089098696,-2.936148936,101266.8406,180342.5157,9.813743957,1.095824978,15.42227469,-3.045023309,26.34866483,-2.761189207
0.92,234.0326447,7.946773846,-1900.626984,1.434655267,1.831598171,14.07308545,-2.945523064,257.7467174,2.549290532,2.624825934,-3.100981382,-2.945523064,101302.696,179595.8377,9.813743761,1.08868176,15.48864582,-3.055670141,26.41807551,-2.764538851
0.93,236.6081955,8.029061841,-1900.692462,1.476499283,1.828316686,14.09566383,-2.955123456,257.7925696,2.549290532,2.629955317,-3.113061302,-2.955123456,101338.0763,178857.2197,9.81374356,1.081576656,15.55290771,-3.066529193,26.48538151,-2.76790448
0.94,239.1841579,8.111214961,-1900.759836,1.518426132,1.825020255,14.11612283,-2.964943695,257.8378407,2.549290532,2.634679851,-3.125339596,-2.964943695,101372.9865,178126.5779,9.813743352,1.074508049,15.61513232,-3.077594383,26.55065508,-2.771286105
0.95,241.7605243,8.193232261,-1900.82911,1.560426508,1.821709088,14.134543,-2.974978,257.8825371,2.549290532,2.639014234,-3.137817519,-2.974978,101407.4311,177403.8299,9.813743139,1.067474203,15.67539087,-3.088860302,26.61396773,-2.774683894
0.96,244.3372878,8.275112806,-1900.900286,1.602491471,1.818383384,14.15100365,-2.985221213,257.9266653,2.549290532,2.642972971,-3.150496452,-2.985221213,101441.415,176688.8947,9.81374292,1.060473271,15.7337537,-3.100322193,26.67539005,-2.778098158
0.97,246.9144411,8.356855676,-1900.97337,1.644612444,1.815043336,14.16558287,-2.995668775,257.9702314,2.549290532,2.646570361,-3.163377895,-2.995668775,101474.9428,175981.6922,9.813742694,1.053503294,15.7902903,-3.111975933,26.73499177,-2.781529352
0.98,249.4919772,8.438459962,-1901.048362,1.686781203,1.811689123,14.17835743,-3.006316706,258.0132417,2.549290532,2.649820485,-3.176463477,-3.006316706,101508.019,175282.1441,9.813742464,1.046562206,15.84506917,-3.123818009,26.7928416,-2.784978066
0.99,252.0698892,8.519924763,-1901.125266,1.728989874,1.808320918,14.18940274,-3.017161581,258.0557022,2.549290532,2.652737199,-3.189754951,-3.017161581,101540.6482,174590.1728,9.813742227,1.039647842,15.89815781,-3.13584549,26.84900723,-2.78844502
1,254.6481701,8.601249192,-1901.204084,1.771230924,1.804938881,14.19879282,-3.028200508,258.0976189,2.549290532,2.655334124,-3.2032542,-3.028200508,101572.835,173905.7025,9.813741984,1.032757939,15.94962265,-3.148056005,26.90355526,-2.791931055
1.01,257.2268131,8.68243237,-1901.284817,1.813497157,1.801543162,14.20660025,-3.039431099,258.1389977,2.549290532,2.657624635,-3.216963241,-3.039431099,101604.5836,173228.658,9.813741735,1.025890144,15.99952901,-3.160447716,26.9565512,-2.795437131
1.02,259.8058113,8.763473428,-1901.367467,1.855781704,1.7981339,14.21289614,-3.050851447,258.1798445,2.549290532,2.659621856,-3.23088422,-3.050851447,101635.8984,172558.9658,9.813741481,1.019042021,16.04794107,-3.173019289,27.00805934,-2.798964315
1.03,262.3851582,8.844371508,-1901.452034,1.898078015,1.794711223,14.21775008,-3.062460104,258.2201649,2.549290532,2.661338652,-3.245019423,-3.062460104,101666.7839,171896.5533,9.81374122,1.012211055,16.09492182,-3.185769868,27.05814281,-2.80251378
1.04,264.9648469,8.925125756,-1901.53852,1.940379855,1.791275246,14.22123017,-3.074256051,258.2599647,2.549290532,2.662787625,-3.259371273,-3.074256051,101697.2441,171241.3491,9.813740954,1.00539466,16.14053304,-3.198699051,27.1068635,-2.806086792
1.05,267.5448709,9.005735331,-1901.626926,1.982681297,1.787826073,14.22340293,-3.086238676,258.2992494,2.549290532,2.663981105,-3.273942334,-3.086238676,101727.2833,170593.2829,9.813740682,0.998590187,16.18483524,-3.21180686,27.15428202,-2.809684708
1.06,270.1252237,9.086199395,-1901.71725,2.02497671,1.784363797,14.22433333,-3.098407751,258.3380245,2.549290532,2.664931151,-3.288735317,-3.098407751,101756.9057,169952.2856,9.813740403,0.991794926,16.22788768,-3.225093719,27.20045771,-2.813308971
1.07,272.7058989,9.16651712,-1901.809494,2.067260756,1.780888498,14.22408475,-3.110763411,258.3762956,2.549290532,2.665649542,-3.303753077,-3.110763411,101786.1153,169318.289,9.813740119,0.985006117,16.26974832,-3.238560428,27.2454486,-2.816961098
1.08,275.28689,9.246687682,-1901.903657,2.10952838,1.777400244,14.22271896,-3.123306126,258.4140678,2.549290532,2.666147776,-3.318998623,-3.123306126,101814.9163,168691.2262,9.813739829,0.978220954,16.31047379,-3.252208142,27.28931139,-2.820642679
1.09,277.8681906,9.326710265,-1901.999738,2.151774805,1.77389909,14.22029617,-3.136036688,258.4513466,2.549290532,2.666437068,-3.334475116,-3.136036688,101843.3125,168071.0311,9.813739533,0.971436588,16.3501194,-3.266038344,27.33210143,-2.824355373
1.1,280.4497945,9.406584056,-1902.097736,2.193995521,1.77038508,14.21687493,-3.148956188,258.4881371,2.549290532,2.666528348,-3.350185877,-3.148956188,101871.3079,167457.6386,9.813739232,0.964650138,16.38873913,-3.280052829,27.37387274,-2.828100897
1.11,283.0316956,9.486308247,-1902.197652,2.236186279,1.766858243,14.21251221,-3.162065994,258.5244444,2.549290532,2.666432256,-3.366134386,-3.162065994,101898.9064,166850.9849,9.813738924,0.957858693,16.42638557,-3.294253682,27.41467794,-2.831881027
1.12,285.6138875,9.565882035,-1902.299483,2.278343086,1.763318599,14.20726337,-3.175367742,258.5602737,2.549290532,2.666159147,-3.382324291,-3.175367742,101926.1119,166251.0068,9.81373861,0.951059316,16.46310998,-3.308643259,27.45456833,-2.835697588
1.13,288.1963643,9.64530462,-1902.403228,2.320462194,1.759766153,14.20118214,-3.188863314,258.59563,2.549290532,2.665719086,-3.398759411,-3.188863314,101952.9282,165657.6422,9.813738291,0.944249051,16.49896224,-3.323224173,27.49359378,-2.839552455
1.14,290.7791199,9.724575202,-1902.508886,2.362540092,1.756200898,14.19432066,-3.202554826,258.6305182,2.549290532,2.665121851,-3.415443738,-3.202554826,101979.359,165070.8299,9.813737965,0.937424926,16.53399087,-3.337999275,27.53180281,-2.843447548
1.15,293.3621484,9.803692988,-1902.616455,2.404573502,1.752622814,14.18672946,-3.216444616,258.6649431,2.549290532,2.664376929,-3.432381444,-3.216444616,102005.408,164490.5096,9.813737634,0.930583956,16.56824301,-3.352971641,27.56924257,-2.847384826
1.16,295.9454437,9.882657183,-1902.725933,2.446559371,1.749031869,14.1784575,-3.230535229,258.6989096,2.549290532,2.663493524,-3.449576887,-3.230535229,102031.0789,163916.6219,9.813737297,0.923723149,16.60176443,-3.368144562,27.60595883,-2.851366285
1.17,298.5290001,9.961466994,-1902.837319,2.48849486,1.745428019,14.16955215,-3.24482941,258.7324225,2.549290532,2.662480552,-3.467034612,-3.24482941,102056.3754,163349.1081,9.813736954,0.916839503,16.63459954,-3.38352153,27.64199597,-2.85539396
1.18,301.1128117,10.04012163,-1902.950609,2.530377341,1.741811208,14.1600592,-3.259330093,258.7654864,2.549290532,2.661346644,-3.484759364,-3.259330093,102081.301,162787.9104,9.813736605,0.909930018,16.66679139,-3.399106226,27.67739702,-2.859469916
1.19,303.6968728,10.11862029,-1903.065803,2.572204386,1.738181365,14.14999898,-3.274040395,258.798106,2.531658257,2.66009565,-3.502756085,-3.274040395,102105.8592,162232.9721,9.81373625,0.902993178,16.69835779,-3.414902089,27.71217971,-2.863595621
1.2,306.2811777,10.1969622,-1903.182897,2.613973388,1.734538431,14.13929251,-3.288963607,258.8302859,2.513257266,2.658712756,-3.521029779,-3.288963607,102130.0536,161684.2359,9.813735889,0.89603363,16.72921723,-3.430910958,27.74626229,-2.867769988
1.21,308.8657208,10.27514654,-1903.30189,2.655681323,1.73088237,14.12783742,-3.304103186,258.8620307,2.494828896,2.657178735,-3.539585412,-3.304103186,102153.8877,161141.6446,9.813735523,0.889057584,16.75926446,-3.447134374,27.7795392,-2.871991329
1.22,311.4504964,10.35317255,-1903.422778,2.697324727,1.727213168,14.11553766,-3.319462752,258.893345,2.476374526,2.655475535,-3.558427893,-3.319462752,102177.3651,160605.1402,9.813735151,0.882070982,16.78840009,-3.463574104,27.81191073,-2.876258127
1.23,314.0354992,10.43103941,-1903.545558,2.738899723,1.723530837,14.10230366,-3.335046075,258.9242335,2.457895691,2.653586308,-3.577562081,-3.335046075,102200.4894,160074.6643,9.813734773,0.875079484,16.81653079,-3.480232131,27.84328324,-2.880569045
1.24,316.6207236,10.50874636,-1903.670228,2.780402044,1.719835411,14.08805211,-3.350857066,258.9547008,2.439394071,2.651495373,-3.596992781,-3.350857066,102223.264,159550.158,9.813734389,0.868088476,16.84356909,-3.497110651,27.87356894,-2.884922917
1.25,319.2061643,10.58629261,-1903.796785,2.82182707,1.716126944,14.07270578,-3.366899768,258.9847516,2.420871483,2.649188186,-3.61672475,-3.366899768,102245.6927,159031.5622,9.813733999,0.861103077,16.86943326,-3.514212055,27.90268578,-2.889318752
1.26,321.7918158,10.66367738,-1903.925225,2.863169846,1.712405511,14.05619331,-3.383178346,259.0143904,2.402329868,2.646651293,-3.636762699,-3.383178346,102267.7789,158518.8175,9.813733603,0.85412815,16.89404707,-3.531538927,27.93055722,-2.893755718
1.27,324.3776731,10.74089992,-1904.055544,2.904425113,1.708671204,14.038449,-3.399697072,259.0436219,2.383771288,2.643872307,-3.657111298,-3.399697072,102289.5262,158011.8642,9.813733202,0.847168309,16.91733966,-3.549094023,27.95711207,-2.898233148
1.28,326.9637308,10.81795945,-1904.187739,2.945587334,1.704924135,14.01941265,-3.41646032,259.0724507,2.36519791,2.64083986,-3.677775172,-3.41646032,102310.9382,157510.6424,9.813732795,0.840227927,16.93924537,-3.566880268,27.98228435,-2.902750528
1.29,329.5499838,10.89485523,-1904.321805,2.986650713,1.701164431,13.99902932,-3.433472552,259.1008814,2.346612001,2.637543579,-3.69875891,-3.433472552,102332.0185,157015.0924,9.813732382,0.833311147,16.95970354,-3.584900739,28.00601308,-2.907307495
1.3,332.1364272,10.97158652,-1904.457738,3.027609225,1.697392233,13.97724917,-3.450738308,259.1289186,2.328015922,2.633974044,-3.720067064,-3.450738308,102352.7707,156525.1539,9.813731963,0.826421887,16.97865841,-3.603158657,28.02824216,-2.911903832
1.31,334.7230558,11.04815257,-1904.595532,3.068456632,1.693607701,13.95402729,-3.468262198,259.1565668,2.309412116,2.630122759,-3.741704149,-3.468262198,102373.1982,156040.767,9.813731539,0.819563852,16.99605887,-3.621657376,28.04892016,-2.916539463
1.32,337.3098648,11.12455268,-1904.735184,3.109186509,1.689811004,13.92932347,-3.486048889,259.1838307,2.290803102,2.625982115,-3.76367465,-3.486048889,102393.3047,155561.8717,9.813731109,0.812740537,17.01185836,-3.64040037,28.0680002,-2.921214447
1.33,339.8968494,11.20078613,-1904.876687,3.149792266,1.686002327,13.90310208,-3.504103096,259.2107147,2.272191469,2.621545363,-3.785983018,-3.504103096,102413.0937,155088.408,9.813730673,0.805955241,17.02601473,-3.659391228,28.08543977,-2.925928974
1.34,342.4840048,11.27685221,-1905.020037,3.19026716,1.682181864,13.87533185,-3.522429577,259.2372233,2.253579867,2.616806575,-3.808633679,-3.522429577,102432.5686,154620.316,9.813730231,0.799211071,17.03849,-3.678633636,28.10120059,-2.930683361
1.35,345.0713262,11.35275024,-1905.165226,3.230604325,1.678349823,13.84598571,-3.541033119,259.263361,2.234971,2.611760617,-3.831631026,-3.541033119,102451.7331,154157.5362,9.813729784,0.792510952,17.04925031,-3.698131377,28.11524843,-2.935478043
1.36,347.6588091,11.42847955,-1905.312249,3.270796783,1.674506421,13.81504063,-3.559918536,259.2891322,2.216367621,2.606403116,-3.85497943,-3.559918536,102470.5906,153700.0089,9.813729331,0.785857631,17.05826569,-3.717888317,28.12755302,-2.940313575
1.37,350.2464489,11.50403947,-1905.4611,3.310837462,1.670651884,13.78247746,-3.579090657,259.3145415,2.197772524,2.600730433,-3.878683235,-3.579090657,102489.1446,153247.6748,9.813728873,0.779253687,17.06550995,-3.737908395,28.13808782,-2.94519062
1.38,352.8342412,11.57942935,-1905.61177,3.350719219,1.666786447,13.74828075,-3.598554321,259.3395931,2.179188539,2.594739627,-3.902746761,-3.598554321,102507.3985,152800.475,9.813728409,0.772701539,17.07096056,-3.758195622,28.14682995,-2.950109951
1.39,355.4221815,11.65464857,-1905.764254,3.390434848,1.662910355,13.7124386,-3.618314371,259.3642914,2.160618528,2.588428432,-3.927174308,-3.618314371,102525.3559,152358.3507,9.813727939,0.766203449,17.07459842,-3.778754068,28.15375999,-2.955072441
1.4,358.0102656,11.72969649,-1905.918542,3.429977102,1.659023859,13.67494251,-3.638375648,259.3886408,2.142065375,2.581795225,-3.951970153,-3.638375648,102543.02,151921.2433,9.813727464,0.759761532,17.07640785,-3.799587855,28.1588619,-2.96007906
1.41,360.5984891,11.80457252,-1906.074628,3.469338703,1.655127217,13.63578722,-3.658742989,259.4126455,2.123531983,2.574838997,-3.977138553,-3.658742989,102560.3944,151489.0949,9.813726983,0.753377762,17.07637633,-3.820701157,28.16212282,-2.965130874
1.42,363.1868481,11.87927606,-1906.232504,3.50851236,1.651220695,13.59497057,-3.679421216,259.4363098,2.105021269,2.567559329,-4.002683746,-3.679421216,102577.4824,151061.8477,9.813726497,0.747053976,17.07449444,-3.842098187,28.163533,-2.970229034
1.43,365.7753383,11.95380653,-1906.392159,3.547490781,1.647304563,13.55249337,-3.700415137,259.459638,2.086536162,2.559956364,-4.028609951,-3.700415137,102594.2873,150639.4442,9.813726006,0.740791881,17.07075571,-3.863783198,28.16308562,-2.975374777
1.44,368.3639558,12.02816338,-1906.553586,3.586266684,1.643379098,13.50835922,-3.721729543,259.4826342,2.06807959,2.552030778,-4.054921369,-3.721729543,102610.8125,150221.8278,9.813725508,0.734593061,17.0651565,-3.885760473,28.16077668,-2.980569422
1.45,370.9526967,12.10234606,-1906.716775,3.624832811,1.639444581,13.46257441,-3.743369201,259.5053025,2.049654485,2.543783757,-4.081622185,-3.743369201,102627.0613,149808.9417,9.813725006,0.72845898,17.05769585,-3.908034324,28.15660489,-2.985814361
1.46,373.5415571,12.17635405,-1906.881717,3.663181942,1.635501298,13.41514776,-3.765338855,259.5276471,2.031263773,2.535216973,-4.108716565,-3.765338855,102643.0369,149400.73,9.813724498,0.72239099,17.04837539,-3.930609089,28.15057151,-2.991111059
1.47,376.1305332,12.25018682,-1907.048402,3.7013069,1.631549538,13.36609051,-3.787643222,259.549672,2.012910372,2.526332557,-4.136208661,-3.787643222,102658.7427,148997.1371,9.813723984,0.716390332,17.03719921,-3.953489125,28.14268028,-2.996461049
1.48,378.7196215,12.32384389,-1907.216819,3.739200566,1.627589597,13.31541619,-3.81028699,259.5713812,1.994597186,2.517133076,-4.164102608,-3.81028699,102674.1819,148598.1081,9.813723466,0.710458146,17.02417371,-3.976678807,28.13293725,-3.00186593
1.49,381.3088183,12.39732478,-1907.386958,3.776855888,1.623621769,13.26314047,-3.833274818,259.5927788,1.976327106,2.50762151,-4.192402525,-3.833274818,102689.3576,148203.5882,9.813722942,0.70459547,17.00930755,-4.000182526,28.12135073,-3.00732736
1.5,383.8981202,12.47062901,-1907.558807,3.814265889,1.619646356,13.20928109,-3.856611334,259.6138686,1.958103001,2.49780123,-4.221112514,-3.856611334,102704.273,147813.5235,9.813722412,0.698803251,16.99261149,-4.024004685,28.1079311,-3.012847052
1.51,386.4875235,12.54375614,-1907.732356,3.851423678,1.615663659,13.15385769,-3.880301134,259.6346546,1.939927719,2.487675973,-4.250236664,-3.880301134,102718.9313,147427.8605,9.813721878,0.693082341,16.9740983,-4.048149699,28.09269078,-3.018426774
1.52,389.0770252,12.61670575,-1907.907593,3.888322455,1.611673984,13.09689172,-3.904348781,259.6551407,1.92180408,2.477249827,-4.279779046,-3.904348781,102733.3356,147046.5463,9.813721338,0.687433509,16.95378264,-4.072621989,28.07564407,-3.024068345
1.53,391.6666217,12.68947742,-1908.084507,3.924955522,1.607677636,13.03840635,-3.928758807,259.6753305,1.903734876,2.466527202,-4.309743715,-3.928758807,102747.489,146669.5283,9.813720793,0.681857439,16.93168097,-4.097425986,28.05680706,-3.029773628
1.54,394.2563101,12.76207075,-1908.263084,3.961316287,1.603674925,12.97842631,-3.953535709,259.695228,1.88572287,2.455512816,-4.340134711,-3.953535709,102761.3946,146296.7549,9.813720243,0.676354737,16.90781147,-4.122566125,28.03619755,-3.03554453
1.55,396.8460871,12.83448536,-1908.443313,3.997398275,1.599666159,12.91697784,-3.978683952,259.7148368,1.867770786,2.444211672,-4.370956056,-3.978683952,102775.0553,145928.1747,9.813719688,0.670925934,16.8821939,-4.148046845,28.01383493,-3.041382997
1.56,399.4359498,12.90672089,-1908.62518,4.03319513,1.595651649,12.85408855,-4.004207969,259.7341606,1.849881316,2.43262904,-4.402211755,-4.004207969,102788.4741,145563.7371,9.813719128,0.665571487,16.85484953,-4.173872588,27.9897401,-3.047291011
1.57,402.0258952,12.978777,-1908.808673,4.068700624,1.591631707,12.78978737,-4.030112159,259.753203,1.83205711,2.420770439,-4.433905795,-4.030112159,102801.6541,145203.3919,9.813718563,0.660291785,16.82580105,-4.200047798,27.96393536,-3.05327059
1.58,404.6159205,13.05065335,-1908.993779,4.10390866,1.587606645,12.72410438,-4.056400891,259.7719677,1.814300777,2.408641618,-4.466042145,-4.056400891,102814.5982,144847.0896,9.813717993,0.655087152,16.79507246,-4.226576922,27.93644434,-3.059323779
1.59,407.2060228,13.12234963,-1909.180483,4.138813278,1.583576775,12.65707079,-4.0830785,259.7904582,1.796614886,2.396248539,-4.498624755,-4.0830785,102827.3093,144494.7813,9.813717418,0.649957848,16.76268902,-4.253464404,27.9072919,-3.065452653
1.6,409.7961995,13.19386555,-1909.368772,4.173408662,1.579542409,12.58871881,-4.110149292,259.8086779,1.779001957,2.383597359,-4.531657551,-4.110149292,102839.7903,144146.4188,9.813716838,0.644904074,16.72867713,-4.28071469,27.87650406,-3.071659311
1.61,412.3864479,13.26520083,-1909.558631,4.20768914,1.575503861,12.51908159,-4.137617541,259.8266304,1.761464465,2.370694417,-4.565144443,-4.137617541,102852.0439,143801.9542,9.813716253,0.639925971,16.69306426,-4.308332224,27.84410789,-3.077945871
1.62,414.9767655,13.33635521,-1909.750047,4.241649189,1.571461441,12.44819312,-4.165487493,259.8443191,1.744004838,2.357546213,-4.599089315,-4.165487493,102864.0731,143461.3404,9.813715664,0.635023629,16.65587888,-4.336321448,27.81013147,-3.084314475
1.63,417.5671499,13.40732844,-1909.943005,4.275283443,1.567415463,12.37608814,-4.193763361,259.8617474,1.726625453,2.344159399,-4.633496029,-4.193763361,102875.8806,143124.5308,9.81371507,0.630197083,16.61715038,-4.3646868,27.77460378,-3.090767277
1.64,420.1575986,13.4781203,-1910.137489,4.308586689,1.563366237,12.30280208,-4.222449334,259.8789186,1.709328636,2.330540758,-4.66836842,-4.222449334,102887.4692,142791.4796,9.813714471,0.62544632,16.57690898,-4.393432716,27.73755465,-3.097306447
1.65,422.7481093,13.54873057,-1910.333484,4.341553875,1.559314072,12.228371,-4.251549568,259.8958359,1.69211666,2.316697194,-4.703710298,-4.251549568,102898.8416,142462.1413,9.813713867,0.620771278,16.53518569,-4.422563627,27.69901465,-3.103934165
1.66,425.3386798,13.61915906,-1910.530976,4.374180111,1.555259279,12.15283149,-4.281068194,259.9125026,1.674991746,2.302635716,-4.739525446,-4.281068194,102910.0005,142136.4712,9.813713259,0.616171851,16.4920122,-4.45208396,27.65901509,-3.11065262
1.67,427.9293079,13.68940558,-1910.729948,4.406460669,1.551202166,12.0762206,-4.311009315,259.928922,1.65795606,2.288363428,-4.775817615,-4.311009315,102920.9486,141814.4251,9.813712646,0.611647889,16.44742085,-4.481998135,27.61758787,-3.117464008
1.68,430.5199915,13.75946999,-1910.930385,4.438390989,1.547143039,11.9985758,-4.341377005,259.9450972,1.641011712,2.273887512,-4.812590527,-4.341377005,102931.6884,141495.9594,9.813712029,0.607199201,16.40144454,-4.512310565,27.57476549,-3.124370528
1.69,433.1107287,13.82935213,-1911.13227,4.469966678,1.543082203,11.91993489,-4.372175314,259.9610312,1.624160758,2.259215218,-4.849847869,-4.372175314,102942.2227,141181.0311,9.813711407,0.602825558,16.35411669,-4.543025657,27.53058092,-3.131374381
1.7,435.7015175,13.89905187,-1911.335588,4.501183511,1.539019963,11.84033595,-4.403408263,259.9767273,1.607405194,2.244353852,-4.887593293,-4.403408263,102952.554,140869.5977,9.813710781,0.598526693,16.30547116,-4.574147807,27.4850676,-3.138477766
1.71,438.2923559,13.96856911,-1911.540323,4.532037433,1.534956621,11.75981729,-4.435079847,259.9921884,1.590746962,2.229310765,-4.925830414,-4.435079847,102962.6848,140561.6173,9.81371015,0.594302304,16.2555422,-4.605681404,27.43825934,-3.145682882
1.72,440.8832423,14.03790373,-1911.746457,4.56252456,1.530892476,11.67841738,-4.467194034,260.0074176,1.574187943,2.214093342,-4.964562809,-4.467194034,102972.6177,140257.0486,9.813709515,0.590152055,16.2043644,-4.637630824,27.39019028,-3.152991921
1.73,443.4741748,14.10705567,-1911.953973,4.592641178,1.526827828,11.59617478,-4.499754765,260.0224177,1.557729962,2.198708992,-5.003794011,-4.499754765,102982.3552,139955.8508,9.813708876,0.586075579,16.15197261,-4.670000431,27.34089486,-3.160407066
1.74,446.0651519,14.17602485,-1912.162855,4.622383745,1.522762972,11.51312814,-4.532765955,260.0371918,1.541374785,2.183165135,-5.043527511,-4.532765955,102991.8996,139657.9838,9.813708233,0.582072479,16.09840194,-4.702794576,27.2904077,-3.167930495
1.75,448.6561719,14.24481122,-1912.373087,4.65174889,1.518698203,11.42931609,-4.566231489,260.0517426,1.525124118,2.167469198,-5.083766752,-4.566231489,103001.2536,139363.4078,9.813707585,0.578142329,16.04368766,-4.736017594,27.23876364,-3.175564372
1.76,451.2472333,14.31341475,-1912.584649,4.680733415,1.514633813,11.34477724,-4.600155225,260.0660731,1.50897961,2.1516286,-5.124515128,-4.600155225,103010.4194,139072.0836,9.813706934,0.574284676,15.98786517,-4.769673805,27.18599762,-3.183310847
1.77,453.8383346,14.38183542,-1912.797526,4.709334291,1.510570092,11.25955011,-4.634540993,260.0801861,1.492942848,2.135650748,-5.165775982,-4.634540993,103019.3994,138783.9728,9.813706278,0.570499042,15.93096997,-4.80376751,27.13214466,-3.191172058
1.78,456.4294745,14.45007322,-1913.0117,4.73754866,1.506507325,11.17367309,-4.669392593,260.0940843,1.477015362,2.119543027,-5.207552601,-4.669392593,103028.1961,138499.0371,9.813705619,0.566784925,15.8730376,-4.83830299,27.07723984,-3.199150123
1.79,459.0206516,14.51812816,-1913.227152,4.765373834,1.502445799,11.0871844,-4.704713793,260.1077704,1.461198623,2.10331279,-5.249848217,-4.704713793,103036.8117,138217.2389,9.813704955,0.5631418,15.81410359,-4.873284502,27.02131823,-3.207247142
1.8,461.6118646,14.58600028,-1913.443866,4.792807293,1.498385795,11.00012207,-4.740508331,260.1212472,1.445494041,2.086967355,-5.292665997,-4.740508331,103045.2485,137938.5413,9.813704288,0.559569122,15.75420344,-4.908716284,26.96441484,-3.215465196
1.81,464.2031124,14.6536896,-1913.661823,4.819846686,1.494327592,10.91252385,-4.776779912,260.1345173,1.429902969,2.070513992,-5.336009049,-4.776779912,103053.5088,137662.9075,9.813703616,0.556066325,15.69337259,-4.944602543,26.90656462,-3.223806341
1.82,466.7943938,14.72119618,-1913.881006,4.846489827,1.490271468,10.82442725,-4.813532208,260.1475833,1.414426702,2.053959923,-5.37988041,-4.813532208,103061.5949,137390.3016,9.813702941,0.552632823,15.63164634,-4.980947462,26.84780239,-3.23227261
1.83,469.3857077,14.78852009,-1914.101396,4.872734696,1.486217695,10.73586945,-4.850768852,260.1604478,1.399066473,2.03731231,-5.42428305,-4.850768852,103069.509,137120.6878,9.813702262,0.549268016,15.56905986,-5.01775519,26.78816283,-3.24086601
1.84,471.9770531,14.85566141,-1914.322975,4.898579437,1.482166545,10.64688729,-4.888493444,260.1731135,1.383823461,2.020578251,-5.469219861,-4.888493444,103077.2533,136854.031,9.81370158,0.545971286,15.50564815,-5.055029846,26.72768043,-3.24958852
1.85,474.568429,14.92262024,-1914.545725,4.924022356,1.478118286,10.55751723,-4.926709542,260.1855828,1.368698786,2.003764775,-5.514693663,-4.926709542,103084.8299,136590.2965,9.813700894,0.542741998,15.44144596,-5.092775513,26.66638946,-3.258442091
1.86,477.1598345,14.98939668,-1914.769627,4.949061919,1.474073182,10.46779534,-4.965420666,260.1978581,1.35369351,1.986878836,-5.560707189,-4.965420666,103092.241,136329.4501,9.813700204,0.539579505,15.37648785,-5.130996235,26.60432395,-3.267428643
1.87,479.7512687,15.05599086,-1914.994664,4.973696749,1.470031496,10.37775726,-5.004630291,260.2099421,1.338808639,1.969927306,-5.607263091,-5.004630291,103099.4888,136071.458,9.813699511,0.536483147,15.31080808,-5.169696017,26.54151767,-3.276550062
1.88,482.3427308,15.12240292,-1915.220817,4.997925627,1.465993485,10.28743818,-5.044341848,260.221837,1.324045123,1.952916975,-5.65436393,-5.044341848,103106.5752,135816.2867,9.813698815,0.533452251,15.24444063,-5.208878819,26.47800407,-3.285808201
1.89,484.9342201,15.188633,-1915.448067,5.021747488,1.461959407,10.19687281,-5.084558721,260.2335454,1.309403855,1.935854541,-5.702012177,-5.084558721,103113.5025,135563.9034,9.813698115,0.530486134,15.17741916,-5.248548555,26.41381629,-3.295204878
1.9,487.5257359,15.25468128,-1915.676396,5.045161419,1.457929512,10.10609537,-5.125284246,260.2450695,1.294885676,1.91874661,-5.750210202,-5.125284246,103120.2727,135314.2755,9.813697412,0.527584101,15.10977697,-5.288709091,26.34898713,-3.304741873
1.91,490.1172775,15.32054791,-1915.905785,5.068166657,1.453904051,10.01513957,-5.166521704,260.2564117,1.280491369,1.901599689,-5.798960276,-5.166521704,103126.8878,135067.3709,9.813696705,0.524745451,15.04154703,-5.329364238,26.28354899,-3.314420929
1.92,492.7088443,15.3862331,-1916.136215,5.090762586,1.449883269,9.924038577,-5.208274324,260.2675743,1.266221666,1.884420187,-5.848264564,-5.208274324,103133.3498,134823.1579,9.813695996,0.52196947,14.97276189,-5.370517754,26.21753392,-3.324243747
1.93,495.3004357,15.45173704,-1916.367669,5.112948735,1.445867408,9.832825014,-5.250545276,260.2785596,1.252077245,1.867214404,-5.898125121,-5.250545276,103139.6607,134581.6052,9.813695283,0.51925544,14.90345371,-5.412173335,26.15097354,-3.334211989
1.94,497.8920513,15.51705994,-1916.600126,5.134724776,1.441856708,9.741530938,-5.293337669,260.2893699,1.238058731,1.849988537,-5.948543887,-5.293337669,103145.8224,134342.6818,9.813694567,0.516602635,14.83365424,-5.454334616,26.08389905,-3.344327271
1.95,500.4836905,15.58220203,-1916.83357,5.156090519,1.437851405,9.650187823,-5.336654552,260.3000073,1.224166699,1.83274867,-5.999522683,-5.336654552,103151.837,134106.3571,9.813693848,0.514010323,14.76339476,-5.497005167,26.0163412,-3.354591168
1.96,503.0753529,15.64716354,-1917.06798,5.177045915,1.43385173,9.558826552,-5.380498903,260.3104741,1.210401671,1.815500775,-6.051063205,-5.380498903,103157.7063,133872.6011,9.813693126,0.511477766,14.69270613,-5.540188486,25.94833029,-3.365005207
1.97,505.6670383,15.71194473,-1917.303338,5.197591046,1.429857912,9.467477404,-5.424873634,260.3207724,1.196764122,1.79825071,-6.10316702,-5.424873634,103163.4323,133641.3838,9.813692401,0.509004222,14.62161871,-5.583887998,25.87989613,-3.375570869
1.98,508.2587461,15.77654585,-1917.539626,5.217726127,1.425870178,9.37617004,-5.469781581,260.3309044,1.183254475,1.781004213,-6.155835563,-5.469781581,103169.0168,133412.6757,9.813691673,0.506588944,14.5501624,-5.628107051,25.81106807,-3.386289586
1.99,510.8504761,15.84096717,-1917.776826,5.237451503,1.421888749,9.284933498,-5.515225505,260.3408722,1.169873107,1.763766905,-6.209070127,-5.515225505,103174.4617,133186.4478,9.813690943,0.504231183,14.47836659,-5.672848913,25.74187495,-3.397162741
2,513.4422281,15.90520897,-1918.014917,5.256767644,1.417913843,9.193796183,-5.561208085,260.3506778,1.156620347,1.746544286,-6.262871863,-5.561208085,103179.7688,132962.6712,9.81369021,0.501930187,14.40626017,-5.718116764,25.67234509,-3.408191664
2.01,516.0340018,15.96927155,-1918.253882,5.275675144,1.413945675,9.102785858,-5.607731917,260.3603235,1.143496476,1.729341734,-6.31724177,-5.607731917,103184.94,132741.3175,9.813689474,0.499685199,14.3338715,-5.763913697,25.60250631,-3.419377634
2.02,518.6257971,16.0331552,-1918.493702,5.294174718,1.409984457,9.011929639,-5.654799508,260.3698111,1.13050173,1.712164501,-6.372180694,-5.654799508,103189.977,132522.3585,9.813688735,0.497495464,14.26122845,-5.810242709,25.53238588,-3.430721875
2.03,521.2176137,16.09686025,-1918.734359,5.312267197,1.406030397,8.921253992,-5.702413274,260.3791427,1.117636303,1.695017718,-6.42768932,-5.702413274,103194.8818,132305.7664,9.813687994,0.495360223,14.18835832,-5.857106702,25.46201057,-3.442225558
2.04,523.8094516,16.16038701,-1918.975834,5.329953529,1.402083698,8.830784725,-5.750575533,260.3883204,1.104900342,1.677906387,-6.483768165,-5.750575533,103199.6559,132091.5137,9.81368725,0.493278717,14.11528788,-5.904508474,25.39140656,-3.453889793
2.05,526.4013107,16.22373582,-1919.218108,5.347234771,1.398144561,8.740546987,-5.799288505,260.397346,1.092293951,1.660835387,-6.540417577,-5.799288505,103204.3012,131879.5732,9.813686504,0.491250188,14.04204336,-5.952450715,25.32059952,-3.465715636
2.06,528.9931909,16.28690702,-1919.461164,5.364112092,1.394213184,8.650565262,-5.848554302,260.4062216,1.079817194,1.643809468,-6.597637724,-5.848554302,103208.8194,131669.918,9.813685755,0.489273875,13.96865043,-6.000936006,25.24961456,-3.477704082
2.07,531.5850921,16.34990096,-1919.704982,5.380586764,1.39028976,8.560863374,-5.89837493,260.4149491,1.067470093,1.626833253,-6.655428593,-5.89837493,103213.2122,131462.5214,9.813685004,0.487349021,13.8951342,-6.049966809,25.1784762,-3.489856064
2.08,534.1770145,16.41271801,-1919.949545,5.396660164,1.386374479,8.471464479,-5.948752279,260.4235303,1.05525263,1.609911238,-6.713789979,-5.948752279,103217.4814,131257.3571,9.813684251,0.485474867,13.82151923,-6.099545468,25.10720844,-3.502172455
2.09,536.768958,16.47535854,-1920.194834,5.412333767,1.382467527,8.382391068,-5.999688121,260.4319671,1.043164748,1.593047793,-6.772721483,-5.999688121,103221.6285,131054.3991,9.813683496,0.483650656,13.74782951,-6.149674199,25.03583469,-3.514654063
2.1,539.3609227,16.53782292,-1920.440831,5.427609147,1.378569087,8.293664967,-6.051184104,260.4402615,1.031206352,1.576247157,-6.832222505,-6.051184104,103225.6553,130853.6217,9.813682738,0.481875635,13.67408846,-6.200355088,24.96437781,-3.527301633
2.11,541.9529087,16.60011155,-1920.687519,5.44248797,1.374679339,8.205307341,-6.10324175,260.4484152,1.01937731,1.559513446,-6.892292236,-6.10324175,103229.5634,130654.9992,9.813681978,0.480149049,13.60031893,-6.251590086,24.89286008,-3.540115841
2.12,544.5449161,16.66222483,-1920.934878,5.456971995,1.370798457,8.117338691,-6.155862445,260.4564301,1.007677453,1.542850645,-6.952929653,-6.155862445,103233.3544,130458.5064,9.813681217,0.478470148,13.52654321,-6.303381003,24.8213032,-3.553097297
2.13,547.136945,16.72416315,-1921.182891,5.471063068,1.366926614,8.02977886,-6.209047438,260.464308,0.996106577,1.526262616,-7.014133514,-6.209047438,103237.0299,130264.1185,9.813680453,0.476838183,13.45278301,-6.355729501,24.74972833,-3.566246543
2.14,549.7289956,16.78592694,-1921.431541,5.484763121,1.363063978,7.942647035,-6.262797836,260.4720506,0.984664443,1.509753092,-7.07590235,-6.262797836,103240.5915,130071.8106,9.813679687,0.475252408,13.37905947,-6.408637093,24.67815605,-3.579564048
2.15,552.3210681,16.84751662,-1921.680809,5.498074167,1.359210715,7.85596175,-6.317114594,260.4796598,0.973350782,1.493325684,-7.138234458,-6.317114594,103244.0409,129881.5583,9.813678919,0.473712081,13.30539318,-6.462105134,24.60660636,-3.593050212
2.16,554.9131627,16.90893261,-1921.930678,5.510998299,1.355366984,7.769740893,-6.371998515,260.4871372,0.962165288,1.476983876,-7.201127898,-6.371998515,103247.3795,129693.3373,9.81367815,0.472216461,13.23180413,-6.516134817,24.53509872,-3.606705359
2.17,557.5052795,16.97017536,-1922.181131,5.523537688,1.351532946,7.684001708,-6.427450241,260.4944846,0.951107627,1.460731029,-7.26458048,-6.427450241,103250.609,129507.1236,9.813677378,0.470764814,13.15831178,-6.570727167,24.46365201,-3.62052974
2.18,560.0974189,17.03124531,-1922.432149,5.535694577,1.347708752,7.598760802,-6.483470252,260.5017037,0.940177432,1.444570383,-7.328589765,-6.483470252,103253.7307,129322.8936,9.813676605,0.469356406,13.084935,-6.625883036,24.39228455,-3.634523531
2.19,562.6895811,17.09214292,-1922.683715,5.547471281,1.343894555,7.51403415,-6.540058853,260.5087961,0.929374308,1.428505053,-7.393153053,-6.540058853,103256.7464,129140.6237,9.813675831,0.467990508,13.01169212,-6.681603097,24.32101411,-3.648686829
2.2,565.2817664,17.15286864,-1922.935813,5.558870182,1.340090502,7.429837099,-6.597216175,260.5157636,0.918697832,1.412538038,-7.45826738,-6.597216175,103259.6573,128960.2907,9.813675054,0.466666396,12.93860089,-6.737887839,24.24985792,-3.663019652
2.21,567.873975,17.21342293,-1923.188425,5.569893728,1.336296735,7.346184381,-6.654942164,260.5226078,0.908147552,1.396672215,-7.523929507,-6.654942164,103262.4652,128781.8714,9.813674276,0.46538335,12.86567853,-6.794737558,24.17883264,-3.677521937
2.22,570.4662073,17.27380629,-1923.441533,5.58054443,1.332513396,7.263090111,-6.713236582,260.5293303,0.897722989,1.380910343,-7.590135919,-6.713236582,103265.1713,128605.343,9.813673497,0.464140654,12.79294171,-6.852152356,24.1079544,-3.692193542
2.23,573.0584636,17.33401917,-1923.695122,5.59082486,1.328740622,7.180567804,-6.772098993,260.5359327,0.887423639,1.365255066,-7.656882813,-6.772098993,103267.7772,128430.6829,9.813672716,0.462937595,12.72040653,-6.910132131,24.0372388,-3.70703424
2.24,575.6507443,17.39406208,-1923.949174,5.600737644,1.324978545,7.098630374,-6.831528761,260.5424167,0.877248974,1.349708913,-7.724166095,-6.831528761,103270.2843,128257.8688,9.813671933,0.461773468,12.64808858,-6.968676572,23.96670089,-3.722043718
2.25,578.2430496,17.4539355,-1924.203673,5.610285466,1.321227295,7.017290147,-6.891525045,260.5487838,0.867198439,1.334274298,-7.791981371,-6.891525045,103272.694,128086.8785,9.813671149,0.46064757,12.57600291,-7.027785155,23.8963552,-3.737221579
2.26,580.83538,17.51363993,-1924.458602,5.61947106,1.317486999,6.936558868,-6.952086791,260.5550355,0.857271459,1.318953525,-7.860323943,-6.952086791,103275.0077,127917.6899,9.813670364,0.459559203,12.50416404,-7.087457135,23.82621575,-3.752567338
2.27,583.4277359,17.57317588,-1924.713944,5.628297212,1.31375778,6.856447711,-7.013212725,260.5611735,0.847467435,1.303748786,-7.929188801,-7.013212725,103277.2269,127750.2814,9.813669578,0.458507675,12.43258595,-7.147691539,23.75629605,-3.76808042
2.28,586.0201175,17.63254386,-1924.969684,5.636766752,1.310039758,6.776967283,-7.074901349,260.5671992,0.837785747,1.288662164,-7.998570615,-7.074901349,103279.3529,127584.6314,9.81366879,0.4574923,12.36128214,-7.208487162,23.68660908,-3.783760161
2.29,588.6125254,17.69174437,-1925.225805,5.644882556,1.306333049,6.69812764,-7.137150933,260.5731142,0.828225753,1.273695638,-8.06846373,-7.137150933,103281.3871,127420.7186,9.813668001,0.456512394,12.29026558,-7.269842558,23.61716735,-3.799605802
2.3,591.2049598,17.75077795,-1925.482291,5.652647543,1.302637767,6.61993829,-7.19995951,260.5789199,0.818786795,1.258851079,-8.138862162,-7.19995951,103283.3308,127258.5217,9.813667211,0.455567282,12.21954873,-7.331756036,23.54798286,-3.815616495
2.31,593.7974213,17.80964512,-1925.739126,5.660064671,1.29895402,6.542408206,-7.263324866,260.5846179,0.809468193,1.244130256,-8.209759587,-7.263324866,103285.1854,127098.0199,9.81366642,0.454656293,12.14914357,-7.394225655,23.47906714,-3.831791293
2.32,596.3899103,17.86834641,-1925.996295,5.667136935,1.295281916,6.465545833,-7.327244539,260.5902096,0.800269248,1.229534835,-8.281149337,-7.327244539,103286.9522,126939.1924,9.813665628,0.453778759,12.07906159,-7.457249211,23.41043123,-3.848129155
2.33,598.9824271,17.92688236,-1926.253782,5.673867365,1.291621557,6.389359103,-7.39171581,260.5956964,0.791189248,1.215066383,-8.353024395,-7.39171581,103288.6325,126782.0187,9.813664835,0.452934022,12.0093138,-7.520824239,23.34208573,-3.86462894
2.34,601.5749722,17.9852535,-1926.511571,5.680259027,1.287973044,6.313855436,-7.456735693,260.6010799,0.78222746,1.200726371,-8.425377388,-7.456735693,103290.2276,126626.4784,9.813664041,0.452121425,11.93991072,-7.584948,23.27404075,-3.881289411
2.35,604.167546,18.04346038,-1926.769646,5.686315012,1.284336474,6.239041759,-7.522300935,260.6063613,0.773383138,1.18651617,-8.49820058,-7.522300935,103291.7388,126472.5514,9.813663247,0.451340321,11.87086243,-7.649617481,23.20630596,-3.898109228
2.36,606.7601491,18.10150356,-1927.027994,5.692038445,1.28071194,6.164924511,-7.588408005,260.6115422,0.76465552,1.172437062,-8.571485867,-7.588408005,103293.1674,126320.2177,9.813662451,0.450590066,11.80217854,-7.71482938,23.13889061,-3.915086949
2.37,609.3527817,18.15938358,-1927.286598,5.697432474,1.277099532,6.091509653,-7.655053088,260.6166238,0.756043831,1.158490232,-8.645224772,-7.655053088,103294.5146,126169.4574,9.813661655,0.449870022,11.73386822,-7.780580108,23.07180349,-3.932221028
2.38,611.9454445,18.21710101,-1927.545444,5.702500274,1.273499338,6.018802681,-7.72223208,260.6216076,0.74754728,1.144676779,-8.71940844,-7.72223208,103295.7817,126020.2511,9.813660857,0.449179557,11.66594017,-7.846865778,23.00505298,-3.949509817
2.39,614.5381378,18.2746564,-1927.804517,5.707245038,1.269911442,5.946808635,-7.789940581,260.626495,0.739165067,1.13099771,-8.794027631,-7.789940581,103296.9699,125872.5793,9.813660059,0.448518045,11.5984027,-7.913682199,22.93864706,-3.966951558
